$GPGSV,3,1,10,18,61,125,40,14,49,304,37,21,44,027,40,09,39,112,44*7E
$GPGSV,3,2,10,27,33,122,42,06,23,280,37,15,17,130,39,22,,,28*42
$GPGSV,3,3,10,03,,,35,19,,,34*72
$GPRMC,020859.000,A,3644.4728,S,17443.9764,E,0.13,0.00,290712,,,A*7D
$GPGGA,020900.000,3644.4713,S,17443.9774,E,1,7,1.38,104.4,M,26.7,M,,*49
$GPGSA,A,3,14,15,21,18,09,06,27,,,,,,1.66,1.38,0.91*00
$GPGSV,3,1,10,18,61,125,40,14,49,304,37,21,44,027,40,09,39,112,44*7E
$GPGSV,3,2,10,27,33,122,42,06,23,280,37,15,17,130,39,22,,,28*42
$GPGSV,3,3,10,03,,,35,19,,,34*72
$GPRMC,020900.000,A,3644.4713,S,17443.9774,E,0.48,0.00,290712,,,A*77
$GPGGA,020901.000,3644.4707,S,17443.9777,E,1,7,1.38,102.9,M,26.7,M,,*45
$GPGSA,A,3,14,15,21,18,09,06,27,,,,,,1.66,1.38,0.91*00
$GPGSV,3,1,10,18,61,125,40,14,49,304,37,21,44,027,40,09,39,112,44*7E
$GPGSV,3,2,10,27,33,122,42,06,23,280,37,15,17,130,40,22,,,28*4C
$GPGSV,3,3,10,03,,,36,19,,,34*71
$GPRMC,020901.000,A,3644.4707,S,17443.9777,E,0.46,0.00,290712,,,A*7E
$GPGGA,020902.000,3644.4710,S,17443.9777,E,1,7,1.38,101.8,M,26.7,M,,*42
$GPGSA,A,3,14,15,21,18,09,06,27,,,,,,1.66,1.38,0.91*00
$GPGSV,3,1,10,18,61,125,40,14,49,304,37,21,44,027,40,09,39,112,44*7E
$GPGSV,3,2,10,27,33,122,42,06,23,280,37,15,17,130,40,22,,,28*4C
$GPGSV,3,3,10,03,,,36,19,,,34*71
$GPRMC,020902.000,A,3644.4710,S,17443.9777,E,0.12,0.00,290712,,,A*7A
$GPGGA,020903.000,3644.4713,S,17443.9774,E,1,7,1.38,101.2,M,26.7,M,,*49
$GPGSA,A,3,14,15,21,18,09,06,27,,,,,,1.66,1.38,0.91*00
$GPGSV,3,1,10,18,61,125,40,14,49,304,37,21,44,027,40,09,39,112,44*7E
$GPGSV,3,2,10,27,33,122,42,06,23,280,37,15,17,130,40,22,,,28*4C
$GPGSV,3,3,10,03,,,36,19,,,34*71
$GPRMC,020903.000,A,3644.4713,S,17443.9774,E,1.19,25.14,290712,,,A*43
$GPGGA,020904.000,3644.4712,S,17443.9774,E,1,7,1.38,99.9,M,26.7,M,,*74
$GPGSA,A,3,14,15,21,18,09,06,27,,,,,,1.66,1.38,0.91*00
$GPGSV,3,1,10,18,61,125,40,14,49,304,37,21,44,027,40,09,39,112,44*7E
$GPGSV,3,2,10,27,33,122,42,06,23,280,37,15,17,130,40,22,,,28*4C
$GPGSV,3,3,10,03,,,36,19,,,34*71
$GPRMC,020904.000,A,3644.4712,S,17443.9774,E,0.17,25.14,290712,,,A*4A
$GPGGA,020905.000,3644.4716,S,17443.9770,E,1,7,1.38,100.1,M,26.7,M,,*4C
$GPGSA,A,3,14,15,21,18,09,06,27,,,,,,1.66,1.38,0.91*00
$GPGSV,3,1,10,18,61,125,40,14,49,304,37,21,44,027,40,09,39,112,44*7E
$GPGSV,3,2,10,27,33,122,42,06,23,280,37,15,17,130,40,22,,,28*4C
$GPGSV,3,3,10,03,,,36,19,,,34*71
$GPRMC,020905.000,A,3644.4716,S,17443.9770,E,1.25,212.37,290712,,,A*7C
$GPGGA,020906.000,3644.4717,S,17443.9770,E,1,7,1.38,100.0,M,26.7,M,,*4F
$GPGSA,A,3,14,15,21,18,09,06,27,,,,,,1.66,1.38,0.91*00
$GPGSV,3,1,10,18,61,125,40,14,49,304,37,21,44,027,40,09,39,112,44*7E
$GPGSV,3,2,10,27,33,122,41,06,23,280,37,15,17,130,40,22,,,28*4F
$GPGSV,3,3,10,03,,,36,19,,,34*71
$GPRMC,020906.000,A,3644.4717,S,17443.9770,E,1.10,253.23,290712,,,A*78
$GPGGA,020907.000,3644.4717,S,17443.9770,E,1,7,1.38,99.5,M,26.7,M,,*7A
$GPGSA,A,3,14,15,21,18,09,06,27,,,,,,1.66,1.38,0.91*00
$GPGSV,3,1,10,18,61,125,40,14,49,304,37,21,44,027,40,09,39,112,44*7E
$GPGSV,3,2,10,27,33,122,41,06,23,280,37,15,17,130,40,22,,,29*4E
$GPGSV,3,3,10,03,,,36,19,,,34*71
$GPRMC,020907.000,A,3644.4717,S,17443.9770,E,0.91,233.86,290712,,,A*78
$GPGGA,020908.000,3644.4716,S,17443.9770,E,1,7,1.38,99.4,M,26.7,M,,*75
$GPGSA,A,3,14,15,21,18,09,06,27,,,,,,1.66,1.38,0.91*00
$GPGSV,3,1,10,18,61,125,40,14,49,304,37,21,44,027,40,09,39,113,44*7F
$GPGSV,3,2,10,27,33,122,41,06,23,280,37,15,17,130,40,22,,,29*4E
$GPGSV,3,3,10,03,,,36,19,,,34*71
$GPRMC,020908.000,A,3644.4716,S,17443.9770,E,0.43,233.86,290712,,,A*79
$GPGGA,020909.000,3644.4712,S,17443.9774,E,1,7,1.38,99.9,M,26.7,M,,*79
$GPGSA,A,3,14,15,21,18,09,06,27,,,,,,1.66,1.38,0.91*00
$GPGSV,3,1,10,18,61,125,40,14,49,304,37,21,44,027,40,09,39,113,44*7F
$GPGSV,3,2,10,27,33,122,41,06,23,280,37,15,17,130,40,22,,,29*4E
$GPGSV,3,3,10,03,,,36,19,,,34*71
$GPRMC,020909.000,A,3644.4712,S,17443.9774,E,0.15,233.86,290712,,,A*7B
$GPGGA,020910.000,3644.4712,S,17443.9776,E,1,7,1.38,100.0,M,26.7,M,,*4B
$GPGSA,A,3,14,15,21,18,09,06,27,,,,,,1.66,1.38,0.91*00
$GPGSV,3,1,10,18,61,125,40,14,49,304,37,21,44,027,40,09,39,113,44*7F
$GPGSV,3,2,10,27,33,122,41,06,23,280,37,15,17,130,40,22,,,29*4E
$GPGSV,3,3,10,03,,,36,19,,,34*71
$GPRMC,020910.000,A,3644.4712,S,17443.9776,E,0.58,326.21,290712,,,A*70
$GPGGA,020911.000,3644.4710,S,17443.9776,E,1,7,1.38,101.0,M,26.7,M,,*49
$GPGSA,A,3,14,15,21,18,09,06,27,,,,,,1.66,1.38,0.91*00
$GPGSV,3,1,10,18,61,125,40,14,49,304,37,21,44,027,40,09,39,113,44*7F
$GPGSV,3,2,10,27,33,122,41,06,23,280,37,15,17,130,40,22,,,29*4E
$GPGSV,3,3,10,03,,,36,19,,,34*71
$GPRMC,020911.000,A,3644.4710,S,17443.9776,E,0.65,27.64,290712,,,A*4E
$GPGGA,020912.000,3644.4707,S,17443.9780,E,1,7,1.38,100.9,M,26.7,M,,*4D
$GPGSA,A,3,14,15,21,18,09,06,27,,,,,,1.66,1.38,0.91*00
$GPGSV,3,1,10,18,61,125,40,14,49,304,37,21,44,027,40,09,39,113,44*7F
$GPGSV,3,2,10,27,33,122,41,06,23,280,37,15,17,130,40,22,,,29*4E
$GPGSV,3,3,10,03,,,36,19,,,34*71
$GPRMC,020912.000,A,3644.4707,S,17443.9780,E,0.68,48.83,290712,,,A*4F
$GPGGA,020913.000,3644.4705,S,17443.9782,E,1,7,1.38,100.7,M,26.7,M,,*42
$GPGSA,A,3,14,15,21,18,09,06,27,,,,,,1.66,1.38,0.91*00
$GPGSV,3,1,10,18,61,125,40,14,49,304,37,21,44,027,40,09,39,113,44*7F
$GPGSV,3,2,10,27,33,122,41,06,23,280,37,15,17,130,40,22,,,29*4E
$GPGSV,3,3,10,03,,,36,19,,,34*71
$GPRMC,020913.000,A,3644.4705,S,17443.9782,E,0.32,48.83,290712,,,A*41
$GPGGA,020914.000,3644.4703,S,17443.9783,E,1,7,1.38,100.6,M,26.7,M,,*43
$GPGSA,A,3,14,15,21,18,09,06,27,,,,,,1.66,1.38,0.91*00
$GPGSV,3,1,10,18,61,125,40,14,49,303,37,21,44,027,40,09,39,113,44*78
$GPGSV,3,2,10,27,33,122,41,06,23,280,37,15,17,130,40,22,,,29*4E
$GPGSV,3,3,10,03,,,36,19,,,34*71
$GPRMC,020914.000,A,3644.4703,S,17443.9783,E,0.38,48.83,290712,,,A*4B
$GPGGA,020915.000,3644.4703,S,17443.9784,E,1,7,1.38,100.7,M,26.7,M,,*44
$GPGSA,A,3,14,15,21,18,09,06,27,,,,,,1.66,1.38,0.91*00
$GPGSV,3,1,10,18,61,125,40,14,49,303,37,21,44,027,40,09,39,113,44*78
$GPGSV,3,2,10,27,33,122,41,06,23,280,37,15,17,129,40,22,,,30*4E
$GPGSV,3,3,10,03,,,36,19,,,34*71
$GPRMC,020915.000,A,3644.4703,S,17443.9784,E,0.01,48.83,290712,,,A*47
$GPGGA,020916.000,3644.4704,S,17443.9785,E,1,7,1.50,100.7,M,26.7,M,,*4F
$GPGSA,A,3,14,15,21,18,09,06,27,,,,,,2.70,1.50,2.25*07
$GPGSV,3,1,10,18,61,125,40,14,49,303,37,21,44,027,40,09,39,113,44*78
$GPGSV,3,2,10,27,33,122,41,06,23,280,37,15,17,129,40,22,,,30*4E
$GPGSV,3,3,10,03,,,36,19,,,34*71
$GPRMC,020916.000,A,3644.4704,S,17443.9785,E,0.01,48.83,290712,,,A*42
$GPGGA,020917.000,3644.4704,S,17443.9785,E,1,7,1.38,100.6,M,26.7,M,,*41
$GPGSA,A,3,14,15,21,18,09,06,27,,,,,,1.66,1.38,0.91*00
$GPGSV,3,1,10,18,61,125,40,14,49,303,37,21,44,027,40,09,39,113,44*78
$GPGSV,3,2,10,27,33,122,41,06,23,280,37,15,17,129,40,22,,,30*4E
$GPGSV,3,3,10,03,,,36,19,,,34*71
$GPRMC,020917.000,A,3644.4704,S,17443.9785,E,0.01,48.83,290712,,,A*43
$GPGGA,020918.000,3644.4704,S,17443.9785,E,1,7,1.38,100.5,M,26.7,M,,*4D
$GPGSA,A,3,14,15,21,18,09,06,27,,,,,,1.66,1.38,0.91*00
$GPGSV,3,1,10,18,61,124,40,14,49,303,37,21,44,027,40,09,39,113,44*79
$GPGSV,3,2,10,27,33,122,41,06,23,280,37,15,17,129,40,22,,,30*4E
$GPGSV,3,3,10,03,,,36,19,,,34*71
$GPRMC,020918.000,A,3644.4704,S,17443.9785,E,0.01,48.83,290712,,,A*4C
$GPGGA,020919.000,3644.4704,S,17443.9786,E,1,7,1.50,100.3,M,26.7,M,,*47
$GPGSA,A,3,14,15,21,18,09,06,27,,,,,,2.70,1.50,2.24*06
$GPGSV,3,1,10,18,61,124,40,14,49,303,37,21,44,027,40,09,39,113,44*79
$GPGSV,3,2,10,27,33,122,41,06,23,280,37,15,17,129,40,22,,,30*4E
$GPGSV,3,3,10,03,,,36,19,,,34*71
$GPRMC,020919.000,A,3644.4704,S,17443.9786,E,0.04,48.83,290712,,,A*4B
$GPGGA,020920.000,3644.4704,S,17443.9788,E,1,7,1.38,100.2,M,26.7,M,,*4C
$GPGSA,A,3,14,15,21,18,09,06,27,,,,,,1.66,1.38,0.91*00
$GPGSV,3,1,10,18,61,124,40,14,49,303,37,21,44,027,40,09,39,113,44*79
$GPGSV,3,2,10,27,33,122,41,06,23,280,37,15,17,129,40,22,,,30*4E
$GPGSV,3,3,10,03,,,36,19,,,34*71
$GPRMC,020920.000,A,3644.4704,S,17443.9788,E,0.73,136.17,290712,,,A*7A
$GPGGA,020921.000,3644.4706,S,17443.9790,E,1,7,1.38,100.1,M,26.7,M,,*45
$GPGSA,A,3,14,15,21,18,09,06,27,,,,,,1.66,1.38,0.91*00
$GPGSV,3,1,10,18,61,124,41,14,49,303,37,21,44,027,40,09,39,113,44*78
$GPGSV,3,2,10,27,33,122,41,06,23,280,37,15,17,129,40,22,,,30*4E
$GPGSV,3,3,10,03,,,36,19,,,34*71
$GPRMC,020921.000,A,3644.4706,S,17443.9790,E,0.36,136.17,290712,,,A*71
$GPGGA,020922.000,3644.4706,S,17443.9791,E,1,8,1.21,99.9,M,26.7,M,,*79
$GPGSA,A,3,14,15,21,18,09,06,27,03,,,,,1.51,1.21,0.91*0F
$GPGSV,3,1,10,18,61,124,41,14,49,303,37,21,44,027,40,09,39,113,44*78
$GPGSV,3,2,10,27,33,122,41,06,23,280,37,03,17,263,36,15,17,129,40*7A
$GPGSV,3,3,10,22,,,30,19,,,34*74
$GPRMC,020922.000,A,3644.4706,S,17443.9791,E,0.30,136.17,290712,,,A*75
$GPGGA,020923.000,3644.4705,S,17443.9790,E,1,8,1.21,99.8,M,26.7,M,,*7B
$GPGSA,A,3,14,15,21,18,09,06,27,03,,,,,1.51,1.21,0.91*0F
$GPGSV,3,1,10,18,61,124,41,14,49,303,37,21,44,027,40,09,39,113,44*78
$GPGSV,3,2,10,27,33,122,41,06,23,280,37,03,17,263,36,15,17,129,40*7A
$GPGSV,3,3,10,22,,,30,19,,,34*74
$GPRMC,020923.000,A,3644.4705,S,17443.9790,E,0.17,136.17,290712,,,A*73
$GPGGA,020924.000,3644.4705,S,17443.9789,E,1,8,1.40,99.9,M,26.7,M,,*72
$GPGSA,A,3,14,15,21,18,09,06,27,03,,,,,2.59,1.40,2.18*00
$GPGSV,3,1,10,18,61,124,41,14,49,303,37,21,44,027,40,09,39,113,44*78
$GPGSV,3,2,10,27,33,122,41,06,23,280,37,03,17,263,36,15,17,129,40*7A
$GPGSV,3,3,10,22,,,30,19,,,34*74
$GPRMC,020924.000,A,3644.4705,S,17443.9789,E,0.17,136.17,290712,,,A*7C
$GPGGA,020925.000,3644.4705,S,17443.9788,E,1,8,1.21,99.7,M,26.7,M,,*7B
$GPGSA,A,3,14,15,21,18,09,06,27,03,,,,,1.51,1.21,0.91*0F
$GPGSV,3,1,10,18,61,124,41,14,49,303,37,21,44,027,40,09,39,113,44*78
$GPGSV,3,2,10,27,33,122,41,06,23,280,37,03,17,263,36,15,17,129,40*7A
$GPGSV,3,3,10,22,,,30,19,,,34*74
$GPRMC,020925.000,A,3644.4705,S,17443.9788,E,0.16,136.17,290712,,,A*7D
$GPGGA,020926.000,3644.4706,S,17443.9789,E,1,8,1.21,99.6,M,26.7,M,,*7B
$GPGSA,A,3,14,15,21,18,09,06,27,03,,,,,1.51,1.21,0.91*0F
$GPGSV,3,1,10,18,61,124,41,14,49,303,37,21,44,027,40,09,39,113,44*78
$GPGSV,3,2,10,27,33,122,41,06,23,280,37,03,17,263,36,15,17,129,40*7A
$GPGSV,3,3,10,22,,,30,19,,,34*74
$GPRMC,020926.000,A,3644.4706,S,17443.9789,E,0.18,136.17,290712,,,A*72
$GPGGA,020927.000,3644.4708,S,17443.9789,E,1,8,1.21,99.4,M,26.7,M,,*76
$GPGSA,A,3,14,15,21,18,09,06,27,03,,,,,1.51,1.21,0.91*0F
$GPGSV,3,1,10,18,61,124,41,14,49,303,37,21,44,027,40,09,39,113,44*78
$GPGSV,3,2,10,27,33,122,41,06,23,280,37,03,17,263,36,15,17,129,40*7A
$GPGSV,3,3,10,22,,,30,19,,,34*74
$GPRMC,020927.000,A,3644.4708,S,17443.9789,E,0.18,136.17,290712,,,A*7D
$GPGGA,020928.000,3644.4708,S,17443.9789,E,1,9,1.09,99.3,M,26.7,M,,*75
$GPGSA,A,3,14,22,15,21,18,09,06,27,03,,,,1.39,1.09,0.86*0D
$GPGSV,3,1,10,18,61,124,41,22,55,227,30,14,49,303,37,21,44,027,40*7C
$GPGSV,3,2,10,09,39,113,44,27,33,122,41,06,23,280,37,03,17,263,36*76
$GPGSV,3,3,10,15,17,129,40,19,,,34*4B
$GPRMC,020928.000,A,3644.4708,S,17443.9789,E,0.18,136.17,290712,,,A*72
$GPGGA,020929.000,3644.4707,S,17443.9788,E,1,9,1.09,99.2,M,26.7,M,,*7B
$GPGSA,A,3,14,22,15,21,18,09,06,27,03,,,,1.39,1.09,0.86*0D
$GPGSV,3,1,10,18,61,124,41,22,55,227,30,14,49,303,37,21,44,027,40*7C
$GPGSV,3,2,10,09,39,113,44,27,33,123,41,06,23,280,37,03,17,263,36*77
$GPGSV,3,3,10,15,17,129,40,19,,,34*4B
$GPRMC,020929.000,A,3644.4707,S,17443.9788,E,0.08,136.17,290712,,,A*7C
$GPGGA,020930.000,3644.4707,S,17443.9788,E,1,9,1.09,99.2,M,26.7,M,,*73
$GPGSA,A,3,14,22,15,21,18,09,06,27,03,,,,1.39,1.09,0.86*0D
$GPGSV,3,1,10,18,61,124,41,22,55,227,30,14,49,303,37,21,44,027,40*7C
$GPGSV,3,2,10,09,39,113,44,27,33,123,41,06,23,280,37,03,17,263,36*77
$GPGSV,3,3,10,15,17,129,40,19,,,34*4B
$GPRMC,020930.000,A,3644.4707,S,17443.9788,E,0.25,136.17,290712,,,A*7B
$GPGGA,020931.000,3644.4706,S,17443.9787,E,1,9,1.09,99.1,M,26.7,M,,*7F
$GPGSA,A,3,14,22,15,21,18,09,06,27,03,,,,1.39,1.09,0.86*0D
$GPGSV,3,1,10,18,61,124,41,22,55,227,30,14,49,303,37,21,44,027,40*7C
$GPGSV,3,2,10,09,39,113,44,27,33,123,41,06,23,280,37,03,17,263,36*77
$GPGSV,3,3,10,15,17,129,40,19,,,34*4B
$GPRMC,020931.000,A,3644.4706,S,17443.9787,E,0.47,136.17,290712,,,A*70
$GPGGA,020932.000,3644.4705,S,17443.9787,E,1,9,1.09,99.0,M,26.7,M,,*7E
$GPGSA,A,3,14,22,15,21,18,09,06,27,03,,,,1.39,1.09,0.86*0D
$GPGSV,3,1,10,18,61,124,41,22,55,227,30,14,49,303,37,21,44,027,40*7C
$GPGSV,3,2,10,09,39,113,44,27,33,123,41,06,23,280,37,03,17,263,36*77
$GPGSV,3,3,10,15,17,129,40,19,,,34*4B
$GPRMC,020932.000,A,3644.4705,S,17443.9787,E,0.25,136.17,290712,,,A*74
$GPGGA,020933.000,3644.4706,S,17443.9786,E,1,9,1.09,99.0,M,26.7,M,,*7D
$GPGSA,A,3,14,22,15,21,18,09,06,27,03,,,,1.39,1.09,0.86*0D
$GPGSV,3,1,10,18,61,124,41,22,55,227,30,14,49,303,37,21,44,027,40*7C
$GPGSV,3,2,10,09,39,113,44,27,33,123,42,06,23,280,37,03,17,263,36*74
$GPGSV,3,3,10,15,17,129,40,19,,,34*4B
$GPRMC,020933.000,A,3644.4706,S,17443.9786,E,0.42,136.17,290712,,,A*76
$GPGGA,020934.000,3644.4706,S,17443.9785,E,1,10,0.97,99.0,M,26.7,M,,*47
$GPGSA,A,3,14,22,15,21,18,09,06,27,03,19,,,1.29,0.97,0.85*01
$GPGSV,3,1,10,18,61,124,41,22,55,227,30,14,49,303,37,21,44,027,40*7C
$GPGSV,3,2,10,09,39,113,44,27,33,123,42,06,23,280,37,03,17,263,35*77
$GPGSV,3,3,10,15,17,129,40,19,16,231,34*7C
$GPRMC,020934.000,A,3644.4706,S,17443.9785,E,0.25,136.17,290712,,,A*73
$GPGGA,020935.000,3644.4707,S,17443.9785,E,1,10,0.97,99.0,M,26.7,M,,*47
$GPGSA,A,3,14,22,15,21,18,09,06,27,03,19,,,1.29,0.97,0.85*01
$GPGSV,3,1,10,18,61,124,41,22,55,227,30,14,49,303,37,21,44,027,40*7C
$GPGSV,3,2,10,09,39,113,44,27,33,123,42,06,23,280,37,03,17,263,35*77
$GPGSV,3,3,10,15,17,129,40,19,16,231,34*7C
$GPRMC,020935.000,A,3644.4707,S,17443.9785,E,1.11,222.07,290712,,,A*72
$GPGGA,020936.000,3644.4709,S,17443.9783,E,1,10,0.97,99.0,M,26.7,M,,*4C
$GPGSA,A,3,14,22,15,21,18,09,06,27,03,19,,,1.29,0.97,0.85*01
$GPGSV,3,1,10,18,61,124,41,22,55,227,30,14,49,303,38,21,44,027,40*73
$GPGSV,3,2,10,09,39,113,44,27,33,123,42,06,23,280,37,03,17,263,35*77
$GPGSV,3,3,10,15,17,129,40,19,16,231,34*7C
$GPRMC,020936.000,A,3644.4709,S,17443.9783,E,0.46,222.07,290712,,,A*7A
$GPGGA,020937.000,3644.4708,S,17443.9783,E,1,10,0.97,99.0,M,26.7,M,,*4C
$GPGSA,A,3,14,22,15,21,18,09,06,27,03,19,,,1.29,0.97,0.85*01
$GPGSV,3,1,10,18,61,124,41,22,55,227,30,14,49,303,38,21,44,027,40*73
$GPGSV,3,2,10,09,39,113,44,27,33,123,42,06,23,280,37,03,17,263,35*77
$GPGSV,3,3,10,15,17,129,40,19,16,231,34*7C
$GPRMC,020937.000,A,3644.4708,S,17443.9783,E,0.41,222.07,290712,,,A*7D
$GPGGA,020938.000,3644.4707,S,17443.9783,E,1,10,0.97,99.2,M,26.7,M,,*4E
$GPGSA,A,3,14,22,15,21,18,09,06,27,03,19,,,1.29,0.97,0.85*01
$GPGSV,3,1,10,18,61,124,41,22,55,227,30,14,49,303,38,21,44,027,40*73
$GPGSV,3,2,10,09,39,113,44,27,33,123,42,06,23,280,37,03,17,263,35*77
$GPGSV,3,3,10,15,17,129,40,19,16,231,34*7C
$GPRMC,020938.000,A,3644.4707,S,17443.9783,E,0.42,222.07,290712,,,A*7E
$GPGGA,020939.000,3644.4708,S,17443.9782,E,1,10,0.97,99.2,M,26.7,M,,*41
$GPGSA,A,3,14,22,15,21,18,09,06,27,03,19,,,1.29,0.97,0.85*01
$GPGSV,3,1,10,18,61,124,41,22,55,227,30,14,49,303,38,21,44,027,40*73
$GPGSV,3,2,10,09,39,113,44,27,33,123,42,06,23,280,37,03,17,263,35*77
$GPGSV,3,3,10,15,17,129,40,19,16,231,34*7C
$GPRMC,020939.000,A,3644.4708,S,17443.9782,E,0.71,221.25,290712,,,A*72
$GPGGA,020940.000,3644.4707,S,17443.9782,E,1,10,0.97,99.1,M,26.7,M,,*43
$GPGSA,A,3,14,22,15,21,18,09,06,27,03,19,,,1.29,0.97,0.85*01
$GPGSV,3,1,10,18,61,124,41,22,55,227,30,14,49,303,38,21,44,027,40*73
$GPGSV,3,2,10,09,39,113,44,27,33,123,42,06,23,280,37,03,17,263,34*76
$GPGSV,3,3,10,15,17,129,40,19,16,231,34*7C
$GPRMC,020940.000,A,3644.4707,S,17443.9782,E,0.28,221.25,290712,,,A*7F
$GPGGA,020941.000,3644.4705,S,17443.9784,E,1,10,0.97,99.0,M,26.7,M,,*47
$GPGSA,A,3,14,22,15,21,18,09,06,27,03,19,,,1.29,0.97,0.85*01
$GPGSV,3,1,10,18,61,124,41,22,55,227,30,14,49,303,38,21,44,027,40*73
$GPGSV,3,2,10,09,39,113,44,27,33,123,42,06,23,280,37,03,17,263,34*76
$GPGSV,3,3,10,15,17,129,40,19,16,231,34*7C
$GPRMC,020941.000,A,3644.4705,S,17443.9784,E,0.76,56.51,290712,,,A*40
$GPGGA,020942.000,3644.4704,S,17443.9784,E,1,10,0.97,98.9,M,26.7,M,,*4D
$GPGSA,A,3,14,22,15,21,18,09,06,27,03,19,,,1.29,0.97,0.85*01
$GPGSV,3,1,10,18,61,124,41,22,55,227,30,14,49,303,38,21,44,027,40*73
$GPGSV,3,2,10,09,39,113,44,27,33,123,42,06,22,280,37,03,17,263,34*77
$GPGSV,3,3,10,15,17,129,40,19,16,231,34*7C
$GPRMC,020942.000,A,3644.4704,S,17443.9784,E,0.56,56.51,290712,,,A*40
$GPGGA,020943.000,3644.4704,S,17443.9783,E,1,10,0.97,99.0,M,26.7,M,,*43
$GPGSA,A,3,14,22,15,21,18,09,06,27,03,19,,,1.29,0.97,0.85*01
$GPGSV,3,1,10,18,61,124,41,22,55,227,30,14,49,303,38,21,44,027,40*73
$GPGSV,3,2,10,09,39,113,44,27,33,123,42,06,22,280,37,03,17,263,33*70
$GPGSV,3,3,10,15,17,129,40,19,16,231,34*7C
$GPRMC,020943.000,A,3644.4704,S,17443.9783,E,0.40,56.51,290712,,,A*41
$GPGGA,020944.000,3644.4704,S,17443.9784,E,1,10,0.97,99.2,M,26.7,M,,*41
$GPGSA,A,3,14,22,15,21,18,09,06,27,03,19,,,1.29,0.97,0.85*01
$GPGSV,3,1,10,18,61,124,41,22,55,227,31,14,49,303,38,21,44,027,40*72
$GPGSV,3,2,10,09,39,113,44,27,33,123,42,06,22,280,37,03,17,263,33*70
$GPGSV,3,3,10,15,17,129,40,19,16,231,34*7C
$GPRMC,020944.000,A,3644.4704,S,17443.9784,E,0.23,56.51,290712,,,A*44
$GPGGA,020945.000,3644.4703,S,17443.9783,E,1,10,0.97,99.0,M,26.7,M,,*42
$GPGSA,A,3,14,22,15,21,18,09,06,27,03,19,,,1.29,0.97,0.85*01
$GPGSV,3,1,10,18,61,124,41,22,55,227,31,14,49,303,38,21,44,027,40*72
$GPGSV,3,2,10,09,39,113,44,27,33,123,42,06,22,280,37,03,17,263,33*70
$GPGSV,3,3,10,15,17,129,40,19,16,231,34*7C
$GPRMC,020945.000,A,3644.4703,S,17443.9783,E,0.15,56.51,290712,,,A*40
$GPGGA,020946.000,3644.4703,S,17443.9783,E,1,10,0.97,98.8,M,26.7,M,,*48
$GPGSA,A,3,14,22,15,21,18,09,06,27,03,19,,,1.29,0.97,0.85*01
$GPGSV,3,1,10,18,61,124,41,22,55,227,31,14,49,303,38,21,44,027,40*72
$GPGSV,3,2,10,09,39,113,44,27,33,123,42,06,22,280,37,03,17,263,33*70
$GPGSV,3,3,10,15,17,129,40,19,16,231,34*7C
$GPRMC,020946.000,A,3644.4703,S,17443.9783,E,0.13,56.51,290712,,,A*45
$GPGGA,020947.000,3644.4703,S,17443.9784,E,1,10,1.03,98.7,M,26.7,M,,*4D
$GPGSA,A,3,14,22,15,21,18,09,06,27,03,19,,,1.94,1.03,1.64*05
$GPGSV,3,1,10,18,61,124,41,22,55,227,32,14,49,303,38,21,44,027,40*71
$GPGSV,3,2,10,09,39,113,44,27,33,123,42,06,22,280,37,03,17,263,32*71
$GPGSV,3,3,10,15,17,129,40,19,16,231,35*7D
$GPRMC,020947.000,A,3644.4703,S,17443.9784,E,0.14,56.51,290712,,,A*44
$GPGGA,020948.000,3644.4702,S,17443.9784,E,1,10,1.03,98.7,M,26.7,M,,*43
$GPGSA,A,3,14,22,15,21,18,09,06,27,03,19,,,1.94,1.03,1.64*05
$GPGSV,3,1,10,18,61,124,41,22,55,227,32,14,49,303,37,21,44,027,40*7E
$GPGSV,3,2,10,09,39,113,44,27,33,123,42,06,22,280,37,03,17,263,33*70
$GPGSV,3,3,10,15,17,129,40,19,16,231,34*7C
$GPRMC,020948.000,A,3644.4702,S,17443.9784,E,0.42,56.51,290712,,,A*49
$GPGGA,020949.000,3644.4702,S,17443.9785,E,1,10,0.97,98.7,M,26.7,M,,*4F
$GPGSA,A,3,14,22,15,21,18,09,06,27,03,19,,,1.29,0.97,0.85*01
$GPGSV,3,1,10,18,61,124,41,22,55,227,32,14,49,303,37,21,44,027,40*7E
$GPGSV,3,2,10,09,39,113,44,27,33,123,42,06,22,280,37,03,17,263,33*70
$GPGSV,3,3,10,15,17,129,41,19,16,231,34*7D
$GPRMC,020949.000,A,3644.4702,S,17443.9785,E,0.01,56.51,290712,,,A*4E
$GPGGA,020950.000,3644.4702,S,17443.9785,E,1,10,0.97,98.7,M,26.7,M,,*47
$GPGSA,A,3,14,22,15,21,18,09,06,27,03,19,,,1.29,0.97,0.85*01
$GPGSV,3,1,10,18,61,124,41,22,55,227,32,14,49,303,37,21,44,027,40*7E
$GPGSV,3,2,10,09,39,113,44,27,33,123,42,06,22,280,37,03,17,263,33*70
$GPGSV,3,3,10,15,17,129,41,19,16,231,34*7D
$GPRMC,020950.000,A,3644.4702,S,17443.9785,E,0.01,56.51,290712,,,A*46
$GPGGA,020951.000,3644.4702,S,17443.9784,E,1,10,0.97,98.7,M,26.7,M,,*47
$GPGSA,A,3,14,22,15,21,18,09,06,27,03,19,,,1.29,0.97,0.85*01
$GPGSV,3,1,10,18,61,124,41,22,55,227,32,14,49,303,37,21,44,027,40*7E
$GPGSV,3,2,10,09,39,113,44,27,33,123,42,06,22,280,37,03,17,263,33*70
$GPGSV,3,3,10,15,17,129,41,19,16,231,34*7D
$GPRMC,020951.000,A,3644.4702,S,17443.9784,E,0.02,56.51,290712,,,A*45
$GPGGA,020952.000,3644.4702,S,17443.9785,E,1,10,0.97,98.7,M,26.7,M,,*45
$GPGSA,A,3,14,22,15,21,18,09,06,27,03,19,,,1.29,0.97,0.85*01
$GPGSV,3,1,10,18,61,124,41,22,55,227,32,14,49,303,37,21,44,027,40*7E
$GPGSV,3,2,10,09,39,113,44,27,33,123,42,06,22,280,37,03,17,263,33*70
$GPGSV,3,3,10,15,17,129,41,19,16,231,34*7D
$GPRMC,020952.000,A,3644.4702,S,17443.9785,E,0.01,56.51,290712,,,A*44
$GPGGA,020953.000,3644.4702,S,17443.9785,E,1,10,0.97,98.7,M,26.7,M,,*44
$GPGSA,A,3,14,22,15,21,18,09,06,27,03,19,,,1.29,0.97,0.85*01
$GPGSV,3,1,10,18,61,124,41,22,55,227,33,14,49,303,37,21,44,027,40*7F
$GPGSV,3,2,10,09,39,113,44,27,33,123,42,06,22,280,38,03,17,263,23*7E
$GPGSV,3,3,10,15,17,129,41,19,16,231,34*7D
$GPRMC,020953.000,A,3644.4702,S,17443.9785,E,0.01,56.51,290712,,,A*45
$GPGGA,020954.000,3644.4703,S,17443.9786,E,1,10,0.97,98.7,M,26.7,M,,*41
$GPGSA,A,3,14,22,15,21,18,09,06,27,03,19,,,1.29,0.97,0.85*01
$GPGSV,3,1,10,18,61,124,41,22,55,227,33,14,49,303,37,21,44,027,40*7F
$GPGSV,3,2,10,09,39,113,44,27,33,123,42,06,22,280,38,03,17,263,30*7C
$GPGSV,3,3,10,15,17,129,40,19,16,231,34*7C
$GPRMC,020954.000,A,3644.4703,S,17443.9786,E,0.01,56.51,290712,,,A*40
$GPGGA,020955.000,3644.4703,S,17443.9786,E,1,10,0.97,98.6,M,26.7,M,,*41
$GPGSA,A,3,14,22,15,21,18,09,06,27,03,19,,,1.29,0.97,0.85*01
$GPGSV,3,1,10,18,61,124,41,22,55,227,33,14,49,303,37,21,44,027,40*7F
$GPGSV,3,2,10,09,39,113,44,27,33,123,42,06,22,280,38,03,17,263,31*7D
$GPGSV,3,3,10,15,17,129,40,19,16,231,34*7C
$GPRMC,020955.000,A,3644.4703,S,17443.9786,E,0.17,56.51,290712,,,A*46
$GPGGA,020956.000,3644.4704,S,17443.9789,E,1,10,0.97,98.6,M,26.7,M,,*4A
$GPGSA,A,3,14,22,15,21,18,09,06,27,03,19,,,1.29,0.97,0.85*01
$GPGSV,3,1,10,18,61,124,41,22,55,227,33,14,49,303,37,21,44,027,40*7F
$GPGSV,3,2,10,09,39,113,44,27,33,123,42,06,22,280,38,03,17,263,32*7E
$GPGSV,3,3,10,15,17,129,40,19,16,232,34*7F
$GPRMC,020956.000,A,3644.4704,S,17443.9789,E,0.54,56.51,290712,,,A*4A
$GPGGA,020957.000,3644.4704,S,17443.9789,E,1,10,0.97,98.4,M,26.7,M,,*49
$GPGSA,A,3,14,22,15,21,18,09,06,27,03,19,,,1.29,0.97,0.85*01
$GPGSV,3,1,10,18,61,124,41,22,55,227,33,14,49,303,37,21,44,027,40*7F
$GPGSV,3,2,10,09,39,113,44,27,33,123,42,06,22,280,38,03,17,263,32*7E
$GPGSV,3,3,10,15,17,129,40,19,16,232,34*7F
$GPRMC,020957.000,A,3644.4704,S,17443.9789,E,0.20,56.51,290712,,,A*48
$GPGGA,020958.000,3644.4703,S,17443.9790,E,1,10,0.97,98.3,M,26.7,M,,*4E
$GPGSA,A,3,14,22,15,21,18,09,06,27,03,19,,,1.29,0.97,0.85*01
$GPGSV,3,1,10,18,61,124,41,22,55,227,33,14,49,303,37,21,43,027,40*78
$GPGSV,3,2,10,09,39,113,44,27,33,123,42,06,22,280,38,03,17,263,33*7F
$GPGSV,3,3,10,15,17,129,40,19,16,232,34*7F
$GPRMC,020958.000,A,3644.4703,S,17443.9790,E,0.37,56.51,290712,,,A*4E
$GPGGA,020959.000,3644.4702,S,17443.9792,E,1,10,0.97,98.2,M,26.7,M,,*4D
$GPGSA,A,3,14,22,15,21,18,09,06,27,03,19,,,1.29,0.97,0.85*01
$GPGSV,3,1,10,18,61,124,41,22,55,227,33,14,49,303,37,21,43,027,40*78
$GPGSV,3,2,10,09,39,113,44,27,33,123,42,06,22,280,38,03,17,263,33*7F
$GPGSV,3,3,10,15,17,129,40,19,16,232,34*7F
$GPRMC,020959.000,A,3644.4702,S,17443.9792,E,0.44,56.51,290712,,,A*48
$GPGGA,021000.000,3644.4701,S,17443.9793,E,1,10,0.97,98.2,M,26.7,M,,*4B
$GPGSA,A,3,14,22,15,21,18,09,06,27,03,19,,,1.29,0.97,0.85*01
$GPGSV,3,1,10,18,61,124,41,22,55,227,33,14,49,303,37,21,43,027,40*78
$GPGSV,3,2,10,09,39,113,44,27,33,123,42,06,22,280,38,03,17,263,33*7F
$GPGSV,3,3,10,15,17,129,40,19,16,232,34*7F
$GPRMC,021000.000,A,3644.4701,S,17443.9793,E,0.31,56.51,290712,,,A*4C
$GPGGA,021001.000,3644.4701,S,17443.9794,E,1,10,0.97,98.1,M,26.7,M,,*4E
$GPGSA,A,3,14,22,15,21,18,09,06,27,03,19,,,1.29,0.97,0.85*01
$GPGSV,3,1,10,18,61,124,41,22,55,227,33,14,49,303,37,21,43,027,40*78
$GPGSV,3,2,10,09,39,113,44,27,33,123,42,06,22,280,38,03,17,263,34*78
$GPGSV,3,3,10,15,17,129,40,19,16,232,34*7F
$GPRMC,021001.000,A,3644.4701,S,17443.9794,E,0.24,56.51,290712,,,A*4E
$GPGGA,021002.000,3644.4700,S,17443.9794,E,1,10,0.97,98.1,M,26.7,M,,*4C
$GPGSA,A,3,14,22,15,21,18,09,06,27,03,19,,,1.29,0.97,0.85*01
$GPGSV,3,1,10,18,61,124,41,22,55,227,33,14,49,303,37,21,43,027,40*78
$GPGSV,3,2,10,09,39,113,44,27,33,123,42,06,22,280,38,03,17,263,34*78
$GPGSV,3,3,10,15,17,129,40,19,16,232,34*7F
$GPRMC,021002.000,A,3644.4700,S,17443.9794,E,0.64,48.13,290712,,,A*41
$GPGGA,021003.000,3644.4699,S,17443.9795,E,1,10,0.97,98.0,M,26.7,M,,*4C
$GPGSA,A,3,14,22,15,21,18,09,06,27,03,19,,,1.29,0.97,0.85*01
$GPGSV,3,1,10,18,61,124,40,22,55,227,33,14,49,303,37,21,43,027,40*79
$GPGSV,3,2,10,09,39,113,43,27,33,123,41,06,22,280,38,03,17,263,34*7C
$GPGSV,3,3,10,15,17,129,40,19,16,232,34*7F
$GPRMC,021003.000,A,3644.4699,S,17443.9795,E,0.52,198.37,290712,,,A*7F
$GPGGA,021004.000,3644.4702,S,17443.9793,E,1,10,0.97,98.3,M,26.7,M,,*4D
$GPGSA,A,3,14,22,15,21,18,09,06,27,03,19,,,1.29,0.97,0.85*01
$GPGSV,3,1,10,18,61,124,40,22,55,227,33,14,49,303,37,21,43,027,40*79
$GPGSV,3,2,10,09,39,113,43,27,33,123,41,06,22,280,38,03,17,263,34*7C
$GPGSV,3,3,10,15,17,129,40,19,16,232,34*7F
$GPRMC,021004.000,A,3644.4702,S,17443.9793,E,1.38,215.36,290712,,,A*77
$GPGGA,021005.000,3644.4706,S,17443.9789,E,1,10,0.97,98.5,M,26.7,M,,*45
$GPGSA,A,3,14,22,15,21,18,09,06,27,03,19,,,1.29,0.97,0.85*01
$GPGSV,3,1,10,18,61,124,40,22,55,227,34,14,49,303,37,21,43,027,40*7E
$GPGSV,3,2,10,09,39,113,43,27,33,123,41,06,22,280,38,03,17,263,34*7C
$GPGSV,3,3,10,15,17,129,40,19,16,232,34*7F
$GPRMC,021005.000,A,3644.4706,S,17443.9789,E,0.12,215.36,290712,,,A*70
$GPGGA,021006.000,3644.4706,S,17443.9789,E,1,10,0.97,98.5,M,26.7,M,,*46
$GPGSA,A,3,14,22,15,21,18,09,06,27,03,19,,,1.29,0.97,0.85*01
$GPGSV,3,1,10,18,61,124,40,22,55,227,34,14,49,303,37,21,43,027,40*7E
$GPGSV,3,2,10,09,39,113,43,27,33,123,41,06,22,280,38,03,17,263,34*7C
$GPGSV,3,3,10,15,17,129,40,19,16,232,34*7F
$GPRMC,021006.000,A,3644.4706,S,17443.9789,E,0.11,215.36,290712,,,A*70
$GPGGA,021007.000,3644.4705,S,17443.9789,E,1,10,0.97,98.4,M,26.7,M,,*45
$GPGSA,A,3,14,22,15,21,18,09,06,27,03,19,,,1.29,0.97,0.85*01
$GPGSV,3,1,10,18,61,124,40,22,55,227,35,14,49,303,37,21,43,027,40*7F
$GPGSV,3,2,10,09,39,113,43,27,33,123,41,06,22,280,38,03,17,263,35*7D
$GPGSV,3,3,10,15,17,129,41,19,16,232,34*7E
$GPRMC,021007.000,A,3644.4705,S,17443.9789,E,0.07,215.36,290712,,,A*75
$GPGGA,021008.000,3644.4705,S,17443.9789,E,1,10,0.97,98.5,M,26.7,M,,*4B
$GPGSA,A,3,14,22,15,21,18,09,06,27,03,19,,,1.29,0.97,0.85*01
$GPGSV,3,1,10,18,61,124,40,22,55,227,35,14,49,303,37,21,43,027,40*7F
$GPGSV,3,2,10,09,39,113,43,27,33,123,41,06,22,280,38,03,17,263,35*7D
$GPGSV,3,3,10,15,17,129,41,19,16,232,34*7E
$GPRMC,021008.000,A,3644.4705,S,17443.9789,E,0.04,215.36,290712,,,A*79
$GPGGA,021009.000,3644.4705,S,17443.9789,E,1,10,0.97,98.6,M,26.7,M,,*49
$GPGSA,A,3,14,22,15,21,18,09,06,27,03,19,,,1.29,0.97,0.85*01
$GPGSV,3,1,10,18,61,124,40,22,55,227,35,14,49,303,37,21,43,027,40*7F
$GPGSV,3,2,10,09,39,113,43,27,33,123,41,06,22,280,38,03,17,263,35*7D
$GPGSV,3,3,10,15,17,129,41,19,16,232,34*7E
$GPRMC,021009.000,A,3644.4705,S,17443.9789,E,0.01,215.36,290712,,,A*7D
$GPGGA,021010.000,3644.4705,S,17443.9789,E,1,10,0.97,98.6,M,26.7,M,,*41
$GPGSA,A,3,14,22,15,21,18,09,06,27,03,19,,,1.29,0.97,0.85*01
$GPGSV,3,1,10,18,61,124,40,22,55,227,35,14,49,303,37,21,43,027,40*7F
$GPGSV,3,2,10,09,39,113,43,27,33,123,41,06,22,280,38,03,17,263,35*7D
$GPGSV,3,3,10,15,17,129,41,19,16,232,34*7E
$GPRMC,021010.000,A,3644.4705,S,17443.9789,E,0.02,215.36,290712,,,A*76
$GPGGA,021011.000,3644.4705,S,17443.9789,E,1,10,0.97,98.6,M,26.7,M,,*40
$GPGSA,A,3,14,22,15,21,18,09,06,27,03,19,,,1.29,0.97,0.85*01
$GPGSV,3,1,10,18,61,124,40,22,55,227,35,14,49,303,37,21,43,027,40*7F
$GPGSV,3,2,10,09,39,113,43,27,33,123,41,06,22,280,38,03,17,263,35*7D
$GPGSV,3,3,10,15,17,129,41,19,16,232,34*7E
$GPRMC,021011.000,A,3644.4705,S,17443.9789,E,0.13,215.36,290712,,,A*77
$GPGGA,021012.000,3644.4706,S,17443.9790,E,1,10,0.97,98.6,M,26.7,M,,*48
$GPGSA,A,3,14,22,15,21,18,09,06,27,03,19,,,1.29,0.97,0.85*01
$GPGSV,3,1,10,18,61,124,40,22,55,227,35,14,49,303,37,21,43,027,40*7F
$GPGSV,3,2,10,09,39,113,43,27,33,123,41,06,22,280,38,03,17,263,35*7D
$GPGSV,3,3,10,15,17,129,41,19,16,232,34*7E
$GPRMC,021012.000,A,3644.4706,S,17443.9790,E,0.08,215.36,290712,,,A*75
$GPGGA,021013.000,3644.4705,S,17443.9791,E,1,10,0.97,98.8,M,26.7,M,,*45
$GPGSA,A,3,14,22,15,21,18,09,06,27,03,19,,,1.29,0.97,0.85*01
$GPGSV,3,1,10,18,61,124,40,22,55,227,35,14,49,303,37,21,43,027,40*7F
$GPGSV,3,2,10,09,39,113,43,27,33,123,41,06,22,280,38,03,17,263,35*7D
$GPGSV,3,3,10,15,17,129,41,19,16,232,34*7E
$GPRMC,021013.000,A,3644.4705,S,17443.9791,E,0.04,215.36,290712,,,A*7A
$GPGGA,021014.000,3644.4705,S,17443.9792,E,1,10,1.03,98.8,M,26.7,M,,*4D
$GPGSA,A,3,14,22,15,21,18,09,06,27,03,19,,,1.93,1.03,1.63*05
$GPGSV,3,1,10,18,61,124,40,22,55,227,35,14,49,303,38,21,43,027,40*70
$GPGSV,3,2,10,09,39,113,43,27,33,123,41,06,22,280,36,03,17,263,34*72
$GPGSV,3,3,10,15,17,129,41,19,16,232,34*7E
$GPRMC,021014.000,A,3644.4705,S,17443.9792,E,0.03,215.36,290712,,,A*79
$GPGGA,021015.000,3644.4705,S,17443.9792,E,1,10,0.97,98.8,M,26.7,M,,*40
$GPGSA,A,3,14,22,15,21,18,09,06,27,03,19,,,1.29,0.97,0.85*01
$GPGSV,3,1,10,18,61,124,40,22,55,227,34,14,49,303,38,21,43,027,40*71
$GPGSV,3,2,10,09,39,113,43,27,33,123,41,06,22,280,36,03,17,263,24*73
$GPGSV,3,3,10,15,17,129,41,19,16,232,25*7E
$GPRMC,021015.000,A,3644.4705,S,17443.9792,E,0.02,215.36,290712,,,A*79
$GPGGA,021016.000,3644.4705,S,17443.9792,E,1,10,0.97,99.0,M,26.7,M,,*4A
$GPGSA,A,3,14,22,15,21,18,09,06,27,03,19,,,1.29,0.97,0.85*01
$GPGSV,3,1,10,18,61,124,39,22,55,227,26,14,49,303,40,21,43,027,40*73
$GPGSV,3,2,10,09,39,113,43,27,33,123,40,06,22,280,36,03,17,263,26*70
$GPGSV,3,3,10,15,17,129,40,19,16,232,25*7F
$GPRMC,021016.000,A,3644.4705,S,17443.9792,E,0.72,221.56,290712,,,A*7C
$GPGGA,021017.000,3644.4704,S,17443.9789,E,1,10,0.97,99.2,M,26.7,M,,*42
$GPGSA,A,3,14,22,15,21,18,09,06,27,03,19,,,1.29,0.97,0.85*01
$GPGSV,3,1,10,18,61,124,39,22,55,227,41,14,49,303,41,21,43,027,41*72
$GPGSV,3,2,10,09,39,113,35,27,33,123,39,06,22,280,37,03,17,263,36*7F
$GPGSV,3,3,10,15,17,129,32,19,16,232,39*77
$GPRMC,021017.000,A,3644.4704,S,17443.9789,E,0.97,229.76,290712,,,A*77
$GPGGA,021018.000,3644.4698,S,17443.9785,E,1,10,0.97,99.2,M,26.7,M,,*45
$GPGSA,A,3,14,22,15,21,18,09,06,27,03,19,,,1.29,0.97,0.85*01
$GPGSV,3,1,10,18,61,124,39,22,55,227,41,14,49,303,41,21,43,027,43*70
$GPGSV,3,2,10,09,39,113,43,27,33,123,39,06,22,280,37,03,17,263,36*7E
$GPGSV,3,3,10,15,17,129,33,19,16,232,39*76
$GPRMC,021018.000,A,3644.4698,S,17443.9785,E,2.47,348.54,290712,,,A*79
$GPGGA,021019.000,3644.4691,S,17443.9786,E,1,10,1.03,99.2,M,26.7,M,,*42
$GPGSA,A,3,14,22,15,21,18,09,06,27,03,19,,,1.93,1.03,1.63*05
$GPGSV,3,1,10,18,61,124,39,22,55,227,41,14,49,303,42,21,43,027,44*74
$GPGSV,3,2,10,09,39,113,43,27,33,123,40,06,22,280,37,03,17,263,35*73
$GPGSV,3,3,10,15,17,129,35,19,16,232,31*78
$GPRMC,021019.000,A,3644.4691,S,17443.9786,E,2.92,10.17,290712,,,A*43
$GPGGA,021020.000,3644.4683,S,17443.9789,E,1,9,1.12,99.3,M,26.7,M,,*7D
$GPGSA,A,3,14,22,15,21,18,09,06,27,03,,,,2.01,1.12,1.67*01
$GPGSV,3,1,10,18,61,124,41,22,55,227,41,14,49,303,43,21,43,027,44*7A
$GPGSV,3,2,10,09,39,113,43,27,33,123,40,06,22,280,36,03,17,263,35*72
$GPGSV,3,3,10,15,17,129,37,19,16,232,24*7E
$GPRMC,021020.000,A,3644.4683,S,17443.9789,E,2.92,19.80,290712,,,A*42
$GPGGA,021021.000,3644.4676,S,17443.9792,E,1,10,0.97,99.4,M,26.7,M,,*4F
$GPGSA,A,3,14,22,15,21,18,09,06,27,03,19,,,1.29,0.97,0.85*01
$GPGSV,3,1,10,18,61,124,42,22,55,227,41,14,49,303,43,21,43,027,44*79
$GPGSV,3,2,10,09,39,113,43,27,33,123,41,06,22,280,36,03,17,263,35*73
$GPGSV,3,3,10,15,17,129,38,19,16,232,26*73
$GPRMC,021021.000,A,3644.4676,S,17443.9792,E,2.91,28.64,290712,,,A*48
$GPGGA,021022.000,3644.4669,S,17443.9797,E,1,10,0.97,99.3,M,26.7,M,,*40
$GPGSA,A,3,14,22,15,21,18,09,06,27,03,19,,,1.29,0.97,0.85*01
$GPGSV,3,1,10,18,61,124,42,22,55,227,41,14,49,303,43,21,43,027,44*79
$GPGSV,3,2,10,09,39,113,43,27,33,123,41,06,22,280,36,03,17,263,35*73
$GPGSV,3,3,10,15,17,129,38,19,16,232,27*72
$GPRMC,021022.000,A,3644.4669,S,17443.9797,E,3.07,30.78,290712,,,A*4A
$GPGGA,021023.000,3644.4662,S,17443.9803,E,1,10,0.97,99.2,M,26.7,M,,*49
$GPGSA,A,3,14,22,15,21,18,09,06,27,03,19,,,1.29,0.97,0.85*01
$GPGSV,3,1,10,18,61,124,35,22,55,227,41,14,49,303,43,21,43,027,44*79
$GPGSV,3,2,10,09,39,113,42,27,33,123,41,06,22,280,35,03,17,263,34*70
$GPGSV,3,3,10,15,17,129,39,19,16,232,28*7C
$GPRMC,021023.000,A,3644.4662,S,17443.9803,E,2.89,32.57,290712,,,A*4A
$GPGGA,021024.000,3644.4655,S,17443.9808,E,1,10,0.97,99.1,M,26.7,M,,*42
$GPGSA,A,3,14,22,15,21,18,09,06,27,03,19,,,1.29,0.97,0.85*01
$GPGSV,3,1,10,18,61,124,36,22,55,227,41,14,49,303,43,21,43,027,44*7A
$GPGSV,3,2,10,09,39,113,41,27,33,123,41,06,22,280,33,03,17,263,32*73
$GPGSV,3,3,10,15,17,129,38,19,16,232,28*7D
$GPRMC,021024.000,A,3644.4655,S,17443.9808,E,2.96,30.83,290712,,,A*47
$GPGGA,021025.000,3644.4648,S,17443.9813,E,1,10,0.97,99.1,M,26.7,M,,*45
$GPGSA,A,3,14,22,15,21,18,09,06,27,03,19,,,1.29,0.97,0.85*01
$GPGSV,3,1,10,18,61,124,38,22,55,227,41,14,49,303,43,21,43,027,45*75
$GPGSV,3,2,10,09,39,113,42,27,33,123,40,06,22,280,32,03,17,263,32*70
$GPGSV,3,3,10,15,17,129,38,19,16,232,27*72
$GPRMC,021025.000,A,3644.4648,S,17443.9813,E,3.01,22.38,290712,,,A*4C
$GPGGA,021026.000,3644.4640,S,17443.9817,E,1,9,1.09,99.0,M,26.7,M,,*75
$GPGSA,A,3,14,22,15,21,18,09,06,27,03,,,,1.39,1.09,0.86*0D
$GPGSV,3,1,10,18,61,124,39,22,55,227,41,14,49,303,43,21,43,027,45*74
$GPGSV,3,2,10,09,39,113,42,27,33,123,41,06,22,280,31,03,17,263,31*71
$GPGSV,3,3,10,15,17,129,39,19,16,232,25*71
$GPRMC,021026.000,A,3644.4640,S,17443.9817,E,2.95,23.23,290712,,,A*44
$GPGGA,021027.000,3644.4635,S,17443.9823,E,1,10,0.97,98.9,M,26.7,M,,*47
$GPGSA,A,3,14,22,15,21,18,09,06,27,03,19,,,1.29,0.97,0.85*01
$GPGSV,3,1,10,18,61,124,40,22,55,227,41,14,49,303,43,21,43,027,44*7B
$GPGSV,3,2,10,09,39,113,42,27,33,123,42,06,22,280,29,03,17,263,30*7A
$GPGSV,3,3,10,15,17,129,40,19,16,232,26*7C
$GPRMC,021027.000,A,3644.4635,S,17443.9823,E,2.88,47.65,290712,,,A*4C
$GPGGA,021028.000,3644.4630,S,17443.9829,E,1,10,0.97,98.8,M,26.7,M,,*46
$GPGSA,A,3,14,22,15,21,18,09,06,27,03,19,,,1.29,0.97,0.85*01
$GPGSV,3,1,10,18,61,123,40,22,55,227,41,14,49,303,43,21,43,027,43*7B
$GPGSV,3,2,10,09,39,113,43,27,33,123,42,06,22,280,28,03,17,263,30*7A
$GPGSV,3,3,10,15,17,129,40,19,16,232,27*7D
$GPRMC,021028.000,A,3644.4630,S,17443.9829,E,2.87,51.27,290712,,,A*42
$GPGGA,021029.000,3644.4627,S,17443.9831,E,1,10,0.97,98.9,M,26.7,M,,*49
$GPGSA,A,3,14,22,15,21,18,09,06,27,03,19,,,1.29,0.97,0.85*01
$GPGSV,3,1,10,18,61,123,40,22,55,227,39,14,49,303,43,21,43,027,43*74
$GPGSV,3,2,10,09,39,113,43,27,33,123,42,06,22,280,28,03,17,263,23*78
$GPGSV,3,3,10,15,17,129,40,19,16,232,27*7D
$GPRMC,021029.000,A,3644.4627,S,17443.9831,E,1.33,291.68,290712,,,A*75
$GPGGA,021030.000,3644.4625,S,17443.9832,E,1,9,0.99,98.9,M,26.7,M,,*76
$GPGSA,A,3,14,22,15,21,18,09,06,27,19,,,,1.32,0.99,0.86*05
$GPGSV,3,1,10,18,61,123,40,22,55,227,40,14,49,303,43,21,43,027,42*7B
$GPGSV,3,2,10,09,39,113,43,27,33,123,42,06,22,280,29,03,17,263,23*79
$GPGSV,3,3,10,15,17,129,40,19,16,232,29*73
$GPRMC,021030.000,A,3644.4625,S,17443.9832,E,2.27,49.80,290712,,,A*4B
$GPGGA,021031.000,3644.4620,S,17443.9838,E,1,10,0.97,99.0,M,26.7,M,,*46
$GPGSA,A,3,14,22,15,21,18,09,06,27,03,19,,,1.29,0.97,0.85*01
$GPGSV,3,1,10,18,61,123,40,22,55,227,40,14,49,303,42,21,43,027,42*7A
$GPGSV,3,2,10,09,39,113,44,27,33,123,41,06,22,280,29,03,17,263,23*7D
$GPGSV,3,3,10,15,17,129,40,19,16,232,30*7B
$GPRMC,021031.000,A,3644.4620,S,17443.9838,E,2.47,48.80,290712,,,A*42
$GPGGA,021032.000,3644.4615,S,17443.9846,E,1,9,0.99,99.0,M,26.7,M,,*7C
$GPGSA,A,3,14,22,15,21,18,09,06,27,19,,,,1.32,0.99,0.86*05
$GPGSV,3,1,10,18,61,123,39,22,56,226,39,14,49,303,42,21,43,027,41*7B
$GPGSV,3,2,10,09,39,113,44,27,33,123,40,06,22,280,30,03,17,263,23*74
$GPGSV,3,3,10,15,17,129,38,19,16,232,28*7D
$GPRMC,021032.000,A,3644.4615,S,17443.9846,E,0.91,48.22,290712,,,A*4F
$GPGGA,021033.000,3644.4611,S,17443.9853,E,1,9,0.99,98.7,M,26.7,M,,*7B
$GPGSA,A,3,14,22,15,21,18,09,06,27,19,,,,1.32,0.99,0.86*05
$GPGSV,3,1,10,18,61,123,38,22,56,226,40,14,49,303,42,21,43,027,42*77
$GPGSV,3,2,10,09,39,113,44,27,33,123,39,06,22,280,32,03,17,263,23*78
$GPGSV,3,3,10,15,17,129,37,19,16,232,27*7D
$GPRMC,021033.000,A,3644.4611,S,17443.9853,E,2.29,46.47,290712,,,A*42
$GPGGA,021034.000,3644.4605,S,17443.9859,E,1,10,0.97,98.5,M,26.7,M,,*47
$GPGSA,A,3,14,22,15,21,18,09,06,27,03,19,,,1.29,0.97,0.85*01
$GPGSV,3,1,10,18,61,123,38,22,56,226,40,14,49,303,42,21,43,027,43*76
$GPGSV,3,2,10,09,39,113,44,27,33,123,39,06,22,280,34,03,17,263,24*79
$GPGSV,3,3,10,15,17,129,37,19,16,232,27*7D
$GPRMC,021034.000,A,3644.4605,S,17443.9859,E,2.68,43.83,290712,,,A*42
$GPGGA,021035.000,3644.4598,S,17443.9863,E,1,10,0.97,98.5,M,26.7,M,,*48
$GPGSA,A,3,14,22,15,21,18,09,06,27,03,19,,,1.29,0.97,0.85*01
$GPGSV,3,1,10,18,61,123,37,22,56,226,41,14,49,303,42,21,43,027,44*7F
$GPGSV,3,2,10,09,39,113,43,27,33,123,38,06,22,280,35,03,17,263,24*7E
$GPGSV,3,3,10,15,17,129,37,19,16,232,29*73
$GPRMC,021035.000,A,3644.4598,S,17443.9863,E,2.98,15.13,290712,,,A*48
$GPGGA,021036.000,3644.4590,S,17443.9865,E,1,10,0.97,98.6,M,26.7,M,,*46
$GPGSA,A,3,14,22,15,21,18,09,06,27,03,19,,,1.29,0.97,0.85*01
$GPGSV,3,1,10,18,61,123,37,22,56,226,42,14,49,303,42,21,43,027,44*7C
$GPGSV,3,2,10,09,39,113,42,27,33,123,38,06,22,280,36,03,17,263,26*7E
$GPGSV,3,3,10,15,17,129,37,19,16,232,31*7A
$GPRMC,021036.000,A,3644.4590,S,17443.9865,E,2.95,3.88,290712,,,A*7D
$GPGGA,021037.000,3644.4581,S,17443.9865,E,1,10,1.03,98.6,M,26.7,M,,*4B
$GPGSA,A,3,14,22,15,21,18,09,06,27,03,19,,,1.92,1.03,1.62*05
$GPGSV,3,1,10,18,61,123,37,22,56,226,42,14,49,303,42,21,43,027,44*7C
$GPGSV,3,2,10,09,39,113,41,27,33,123,37,06,22,280,37,03,17,263,27*72
$GPGSV,3,3,10,15,17,129,36,19,16,232,32*78
$GPRMC,021037.000,A,3644.4581,S,17443.9865,E,2.96,356.31,290712,,,A*7E
$GPGGA,021038.000,3644.4573,S,17443.9866,E,1,10,1.03,98.6,M,26.7,M,,*4A
$GPGSA,A,3,14,22,15,21,18,09,06,27,03,19,,,1.92,1.03,1.62*05
$GPGSV,3,1,10,18,61,123,37,22,56,226,42,14,49,303,42,21,43,027,44*7C
$GPGSV,3,2,10,09,39,113,40,27,33,123,36,06,22,280,38,03,17,263,28*72
$GPGSV,3,3,10,15,17,129,34,19,16,232,32*7A
$GPRMC,021038.000,A,3644.4573,S,17443.9866,E,2.93,356.42,290712,,,A*7E
$GPGGA,021039.000,3644.4565,S,17443.9866,E,1,10,1.03,98.5,M,26.7,M,,*4F
$GPGSA,A,3,14,22,15,21,18,09,06,27,03,19,,,1.92,1.03,1.62*05
$GPGSV,3,1,10,18,61,123,37,22,56,226,42,14,49,303,42,21,43,027,44*7C
$GPGSV,3,2,10,09,39,113,38,27,33,123,28,06,22,280,38,03,17,263,30*7B
$GPGSV,3,3,10,15,17,129,26,19,16,232,32*79
$GPRMC,021039.000,A,3644.4565,S,17443.9866,E,2.87,356.80,290712,,,A*73
$GPGGA,021040.000,3644.4558,S,17443.9864,E,1,10,1.03,98.2,M,26.7,M,,*4A
$GPGSA,A,3,14,22,15,21,18,09,06,27,03,19,,,1.92,1.03,1.62*05
$GPGSV,3,1,10,18,61,123,37,22,56,226,42,14,49,303,43,21,43,027,44*7D
$GPGSV,3,2,10,09,39,113,36,27,33,123,27,06,22,280,36,03,17,263,31*75
$GPGSV,3,3,10,15,17,129,27,19,16,232,32*78
$GPRMC,021040.000,A,3644.4558,S,17443.9864,E,2.45,354.40,290712,,,A*71
$GPGGA,021041.000,3644.4552,S,17443.9863,E,1,10,1.03,97.9,M,26.7,M,,*42
$GPGSA,A,3,14,22,15,21,18,09,06,27,03,19,,,1.92,1.03,1.62*05
$GPGSV,3,1,10,18,61,123,37,22,56,226,42,14,49,303,42,21,43,027,45*7D
$GPGSV,3,2,10,09,39,113,43,27,33,123,39,06,22,280,37,03,17,263,30*78
$GPGSV,3,3,10,15,17,129,35,19,16,232,33*7A
$GPRMC,021041.000,A,3644.4552,S,17443.9863,E,0.96,7.68,290712,,,A*7E
$GPGGA,021042.000,3644.4547,S,17443.9868,E,1,10,1.03,99.6,M,26.7,M,,*4F
$GPGSA,A,3,14,22,15,21,18,09,06,27,03,19,,,1.92,1.03,1.62*05
$GPGSV,3,1,10,18,61,123,38,22,56,226,41,14,49,303,42,21,43,027,44*70
$GPGSV,3,2,10,09,39,113,43,27,33,123,39,06,22,280,36,03,17,263,28*70
$GPGSV,3,3,10,15,17,129,37,19,16,232,32*79
$GPRMC,021042.000,A,3644.4547,S,17443.9868,E,2.34,58.89,290712,,,A*4D
$GPGGA,021043.000,3644.4543,S,17443.9873,E,1,9,0.99,99.7,M,26.7,M,,*7B
$GPGSA,A,3,14,22,15,21,18,09,06,27,19,,,,1.32,0.99,0.86*05
$GPGSV,3,1,10,18,61,123,39,22,56,226,40,14,49,303,42,21,43,027,43*77
$GPGSV,3,2,10,09,39,113,44,27,33,123,40,06,22,280,28,03,17,263,20*7E
$GPGSV,3,3,10,15,17,129,39,19,16,232,33*76
$GPRMC,021043.000,A,3644.4543,S,17443.9873,E,3.17,40.71,290712,,,A*4C
$GPGGA,021044.000,3644.4539,S,17443.9880,E,1,10,0.97,98.6,M,26.7,M,,*4B
$GPGSA,A,3,14,22,15,21,18,09,06,27,03,19,,,1.29,0.97,0.85*01
$GPGSV,3,1,10,18,61,123,40,22,56,226,38,14,49,303,41,21,43,027,44*72
$GPGSV,3,2,10,09,39,113,43,27,33,123,39,06,22,280,30,03,17,263,22*7C
$GPGSV,3,3,10,15,17,129,39,19,16,232,33*76
$GPRMC,021044.000,A,3644.4539,S,17443.9880,E,1.72,41.33,290712,,,A*4C
$GPGGA,021045.000,3644.4536,S,17443.9882,E,1,10,0.97,98.5,M,26.7,M,,*44
$GPGSA,A,3,14,22,15,21,18,09,06,27,03,19,,,1.29,0.97,0.85*01
$GPGSV,3,1,10,18,61,123,39,22,56,226,38,14,49,303,40,21,43,027,36*78
$GPGSV,3,2,10,09,39,113,36,27,33,123,32,06,22,280,31,03,17,263,24*72
$GPGSV,3,3,10,15,17,129,31,19,16,232,23*7F
$GPRMC,021045.000,A,3644.4536,S,17443.9882,E,0.87,325.85,290712,,,A*77
$GPGGA,021046.000,3644.4523,S,17443.9882,E,1,10,0.97,98.3,M,26.7,M,,*45
$GPGSA,A,3,14,22,15,21,18,09,06,27,03,19,,,1.29,0.97,0.85*01
$GPGSV,3,1,10,18,61,123,30,22,56,226,38,14,49,303,40,21,43,027,37*70
$GPGSV,3,2,10,09,39,113,26,27,33,123,24,06,22,280,33,03,17,263,24*76
$GPGSV,3,3,10,15,17,129,24,19,16,232,32*7B
$GPRMC,021046.000,A,3644.4523,S,17443.9882,E,3.66,6.13,290712,,,A*71
$GPGGA,021047.000,3644.4516,S,17443.9883,E,1,10,1.03,98.5,M,26.7,M,,*49
$GPGSA,A,3,14,22,15,21,18,09,06,27,03,19,,,1.92,1.03,1.62*05
$GPGSV,3,1,10,18,61,123,31,22,56,226,38,14,49,303,40,21,43,027,36*70
$GPGSV,3,2,10,09,39,113,27,27,33,123,24,06,22,280,34,03,17,263,23*77
$GPGSV,3,3,10,15,17,129,25,19,16,232,33*7B
$GPRMC,021047.000,A,3644.4516,S,17443.9883,E,2.10,6.85,290712,,,A*78
$GPGGA,021048.000,3644.4509,S,17443.9883,E,1,10,1.03,98.2,M,26.7,M,,*4F
$GPGSA,A,3,14,22,15,21,18,09,06,27,03,19,,,1.92,1.03,1.62*05
$GPGSV,3,1,10,18,61,123,33,22,56,226,39,14,49,303,41,21,43,027,43*70
$GPGSV,3,2,10,09,39,113,37,27,33,123,33,06,22,280,35,03,17,263,24*76
$GPGSV,3,3,10,15,17,129,32,19,16,232,34*7A
$GPRMC,021048.000,A,3644.4509,S,17443.9883,E,3.23,355.39,290712,,,A*7A
$GPGGA,021049.000,3644.4499,S,17443.9883,E,1,10,1.03,98.1,M,26.7,M,,*45
$GPGSA,A,3,14,22,15,21,18,09,06,27,03,19,,,1.92,1.03,1.62*05
$GPGSV,3,1,10,18,61,123,33,22,56,226,39,14,49,303,41,21,43,027,41*72
$GPGSV,3,2,10,09,39,113,37,27,33,123,31,06,22,281,34,03,17,263,24*74
$GPGSV,3,3,10,15,17,129,31,19,16,232,34*79
$GPRMC,021049.000,A,3644.4499,S,17443.9883,E,2.96,355.39,290712,,,A*7C
$GPGGA,021050.000,3644.4491,S,17443.9883,E,1,10,1.03,97.5,M,26.7,M,,*4E
$GPGSA,A,3,14,22,15,21,18,09,06,27,03,19,,,1.92,1.03,1.62*05
$GPGSV,3,1,10,18,61,123,35,22,56,226,39,14,49,303,41,21,43,027,40*75
$GPGSV,3,2,10,09,39,113,30,27,33,123,30,06,22,281,34,03,17,263,25*73
$GPGSV,3,3,10,15,17,129,30,19,16,232,33*7F
$GPRMC,021050.000,A,3644.4491,S,17443.9883,E,2.47,16.60,290712,,,A*48
$GPGGA,021051.000,3644.4484,S,17443.9883,E,1,10,0.97,97.4,M,26.7,M,,*46
$GPGSA,A,3,14,22,15,21,18,09,06,27,03,19,,,1.29,0.97,0.85*01
$GPGSV,3,1,10,18,61,123,36,22,56,226,39,14,49,303,42,21,43,027,41*74
$GPGSV,3,2,10,09,39,113,38,27,33,123,30,06,22,281,35,03,17,263,32*7C
$GPGSV,3,3,10,15,17,129,31,19,16,232,32*7F
$GPRMC,021051.000,A,3644.4484,S,17443.9883,E,2.53,358.86,290712,,,A*79
$GPGGA,021052.000,3644.4476,S,17443.9883,E,1,10,1.03,97.0,M,26.7,M,,*40
$GPGSA,A,3,14,22,15,21,18,09,06,27,03,19,,,1.92,1.03,1.62*05
$GPGSV,3,1,10,18,61,123,45,22,56,226,40,14,49,303,43,21,43,027,42*7C
$GPGSV,3,2,10,09,39,114,38,27,33,123,30,06,22,281,36,03,17,263,33*79
$GPGSV,3,3,10,15,17,129,31,19,16,232,30*7D
$GPRMC,021052.000,A,3644.4476,S,17443.9883,E,2.97,11.74,290712,,,A*4C
$GPGGA,021053.000,3644.4468,S,17443.9883,E,1,9,1.12,97.6,M,26.7,M,,*70
$GPGSA,A,3,14,22,15,21,18,09,06,27,03,,,,2.00,1.12,1.65*02
$GPGSV,3,1,10,18,61,123,45,22,56,226,41,14,49,303,44,21,43,027,43*7B
$GPGSV,3,2,10,09,39,114,36,27,33,123,29,06,22,281,36,03,17,263,32*7E
$GPGSV,3,3,10,15,17,129,31,19,16,232,28*74
$GPRMC,021053.000,A,3644.4468,S,17443.9883,E,2.75,12.53,290712,,,A*48
$GPGGA,021054.000,3644.4461,S,17443.9884,E,1,8,1.18,97.5,M,26.7,M,,*71
$GPGSA,A,3,14,22,15,21,18,09,06,27,,,,,2.18,1.18,1.84*0D
$GPGSV,3,1,10,18,61,123,44,22,56,226,41,14,49,303,44,21,43,027,44*7D
$GPGSV,3,2,10,09,39,114,36,27,33,123,29,06,22,281,35,03,17,263,22*7C
$GPGSV,3,3,10,15,17,129,31,19,16,232,21*7D
$GPRMC,021054.000,A,3644.4461,S,17443.9884,E,2.76,14.92,290712,,,A*49
$GPGGA,021055.000,3644.4453,S,17443.9886,E,1,9,1.12,97.4,M,26.7,M,,*79
$GPGSA,A,3,14,22,15,21,18,09,06,27,03,,,,2.00,1.12,1.65*02
$GPGSV,3,1,10,18,61,123,44,22,56,226,41,14,49,303,43,21,43,027,45*7B
$GPGSV,3,2,10,09,39,114,36,27,33,123,30,06,22,281,34,03,17,263,22*75
$GPGSV,3,3,10,15,17,129,30,19,16,232,21*7C
$GPRMC,021055.000,A,3644.4453,S,17443.9886,E,2.73,13.63,290712,,,A*47
$GPGGA,021056.000,3644.4447,S,17443.9888,E,1,10,1.03,97.5,M,26.7,M,,*48
$GPGSA,A,3,14,22,15,21,18,09,06,27,03,19,,,1.91,1.03,1.62*06
$GPGSV,3,1,10,18,61,123,43,22,56,226,41,14,49,303,43,21,43,027,45*7C
$GPGSV,3,2,10,09,39,114,36,27,33,123,30,06,22,281,34,03,17,263,24*73
$GPGSV,3,3,10,15,17,129,31,19,16,232,22*7E
$GPRMC,021056.000,A,3644.4447,S,17443.9888,E,2.71,23.42,290712,,,A*4D
$GPGGA,021057.000,3644.4440,S,17443.9892,E,1,8,1.17,97.7,M,26.7,M,,*7B
$GPGSA,A,3,14,22,15,21,18,09,06,27,,,,,1.46,1.17,0.88*07
$GPGSV,3,1,10,18,61,123,41,22,56,226,41,14,49,303,43,21,43,027,45*7E
$GPGSV,3,2,10,09,39,114,36,27,33,123,38,06,22,281,32,03,17,263,23*7A
$GPGSV,3,3,10,15,17,129,32,19,16,232,22*7D
$GPRMC,021057.000,A,3644.4440,S,17443.9892,E,2.94,25.46,290712,,,A*49
$GPGGA,021058.000,3644.4433,S,17443.9895,E,1,10,0.97,97.8,M,26.7,M,,*48
$GPGSA,A,3,14,22,15,21,18,09,06,27,03,19,,,1.29,0.97,0.85*01
$GPGSV,3,1,10,18,61,123,40,22,56,226,41,14,49,303,43,21,43,027,44*7E
$GPGSV,3,2,10,09,39,114,35,27,33,123,29,06,22,281,24,03,17,263,24*79
$GPGSV,3,3,10,19,16,232,35,15,16,129,32*7A
$GPRMC,021058.000,A,3644.4433,S,17443.9895,E,2.58,26.59,290712,,,A*48
$GPGGA,021059.000,3644.4427,S,17443.9899,E,1,10,0.97,97.8,M,26.7,M,,*40
$GPGSA,A,3,14,22,15,21,18,09,06,27,03,19,,,1.29,0.97,0.85*01
$GPGSV,3,1,10,18,61,123,40,22,56,226,41,14,49,303,43,21,43,027,44*7E
$GPGSV,3,2,10,09,39,114,34,27,33,123,30,06,22,281,25,03,17,263,34*70
$GPGSV,3,3,10,19,16,232,35,15,16,129,33*7B
$GPRMC,021059.000,A,3644.4427,S,17443.9899,E,2.54,25.08,290712,,,A*4B
$GPGGA,021100.000,3644.4420,S,17443.9902,E,1,10,0.97,97.5,M,26.7,M,,*44
$GPGSA,A,3,14,22,15,21,18,09,06,27,03,19,,,1.29,0.97,0.85*01
$GPGSV,3,1,10,18,61,123,41,22,56,226,41,14,49,303,43,21,43,027,44*7F
$GPGSV,3,2,10,09,39,114,35,27,33,123,31,06,22,281,24,03,17,263,24*70
$GPGSV,3,3,10,19,16,232,34,15,16,129,32*7B
$GPRMC,021100.000,A,3644.4420,S,17443.9902,E,2.73,23.15,290712,,,A*4D
$GPGGA,021101.000,3644.4413,S,17443.9907,E,1,9,0.99,97.6,M,26.7,M,,*75
$GPGSA,A,3,14,22,15,21,18,09,06,27,19,,,,1.32,0.99,0.86*05
$GPGSV,3,1,10,18,61,123,42,22,56,226,41,14,49,303,43,21,43,027,44*7C
$GPGSV,3,2,10,09,39,114,36,27,33,123,33,06,22,281,24,03,17,263,23*76
$GPGSV,3,3,10,19,16,232,26,15,16,129,34*7E
$GPRMC,021101.000,A,3644.4413,S,17443.9907,E,2.80,33.13,290712,,,A*42
$GPGGA,021102.000,3644.4407,S,17443.9912,E,1,8,1.05,97.6,M,26.7,M,,*72
$GPGSA,A,3,14,22,15,21,18,09,27,19,,,,,1.38,1.05,0.88*03
$GPGSV,3,1,10,18,61,123,43,22,56,226,41,14,49,303,43,21,43,027,44*7D
$GPGSV,3,2,10,09,39,114,43,27,33,123,34,06,22,281,23,03,17,263,22*75
$GPGSV,3,3,10,19,16,232,25,15,16,129,34*7D
$GPRMC,021102.000,A,3644.4407,S,17443.9912,E,2.81,34.41,290712,,,A*41
$GPGGA,021103.000,3644.4401,S,17443.9919,E,1,8,1.17,97.6,M,26.7,M,,*7D
$GPGSA,A,3,14,22,15,21,18,09,06,27,,,,,1.46,1.17,0.88*07
$GPGSV,3,1,10,18,61,123,43,22,56,226,40,14,49,303,43,21,43,027,44*7C
$GPGSV,3,2,10,09,39,114,41,27,33,123,35,06,22,281,24,03,17,263,21*72
$GPGSV,3,3,10,19,16,232,24,15,16,129,35*7D
$GPRMC,021103.000,A,3644.4401,S,17443.9919,E,2.80,38.67,290712,,,A*44
$GPGGA,021104.000,3644.4396,S,17443.9926,E,1,8,1.17,97.6,M,26.7,M,,*7F
$GPGSA,A,3,14,22,15,21,18,09,06,27,,,,,1.46,1.17,0.88*07
$GPGSV,3,1,10,18,61,123,43,22,56,226,40,14,49,303,43,21,43,027,44*7C
$GPGSV,3,2,10,09,39,114,40,27,33,123,36,06,22,281,25,03,17,263,20*70
$GPGSV,3,3,10,19,16,232,23,15,16,129,36*79
$GPRMC,021104.000,A,3644.4396,S,17443.9926,E,2.80,41.38,290712,,,A*42
$GPGGA,021105.000,3644.4391,S,17443.9933,E,1,9,0.99,97.8,M,26.7,M,,*75
$GPGSA,A,3,14,22,15,21,18,09,06,27,19,,,,1.31,0.99,0.86*06
$GPGSV,3,1,10,18,61,123,43,22,56,226,40,14,49,303,42,21,43,027,44*7D
$GPGSV,3,2,10,09,39,114,41,27,33,123,37,06,22,281,25,03,17,263,19*7A
$GPGSV,3,3,10,19,16,232,23,15,16,129,37*78
$GPRMC,021105.000,A,3644.4391,S,17443.9933,E,2.78,39.29,290712,,,A*48
$GPGGA,021106.000,3644.4385,S,17443.9939,E,1,9,0.99,97.8,M,26.7,M,,*79
$GPGSA,A,3,14,22,15,21,18,09,06,27,19,,,,1.32,0.99,0.86*05
$GPGSV,3,1,10,18,61,123,43,22,56,226,40,14,49,303,41,21,43,027,44*7E
$GPGSV,3,2,10,09,39,114,40,27,33,123,37,06,22,281,26,03,17,263,19*78
$GPGSV,3,3,10,19,16,232,24,15,16,129,37*7F
$GPRMC,021106.000,A,3644.4385,S,17443.9939,E,2.78,39.50,290712,,,A*4A
$GPGGA,021107.000,3644.4380,S,17443.9945,E,1,9,0.99,97.7,M,26.7,M,,*79
$GPGSA,A,3,14,22,15,21,18,09,06,27,19,,,,1.32,0.99,0.86*05
$GPGSV,3,1,10,18,61,123,44,22,56,226,40,14,49,303,41,21,43,027,44*79
$GPGSV,3,2,10,09,39,114,40,27,33,123,37,06,22,281,26,03,17,263,19*78
$GPGSV,3,3,10,19,16,232,25,15,16,129,37*7E
$GPRMC,021107.000,A,3644.4380,S,17443.9945,E,2.78,41.47,290712,,,A*4C
$GPGGA,021108.000,3644.4375,S,17443.9953,E,1,10,0.97,97.7,M,26.7,M,,*4D
$GPGSA,A,3,14,22,15,21,18,09,06,27,03,19,,,1.29,0.97,0.85*01
$GPGSV,3,1,10,18,61,123,43,22,56,226,40,14,49,303,40,21,43,027,44*7F
$GPGSV,3,2,10,09,39,114,41,27,33,123,38,06,22,281,25,03,17,263,20*7F
$GPGSV,3,3,10,19,16,232,26,15,16,129,38*72
$GPRMC,021108.000,A,3644.4375,S,17443.9953,E,2.76,43.63,290712,,,A*44
$GPGGA,021109.000,3644.4369,S,17443.9962,E,1,9,0.99,97.9,M,26.7,M,,*7B
$GPGSA,A,3,14,22,15,21,18,09,06,27,19,,,,1.32,0.99,0.86*05
$GPGSV,3,1,10,18,61,123,43,22,56,226,40,14,49,303,41,21,43,027,44*7E
$GPGSV,3,2,10,09,39,114,41,27,33,123,38,06,22,281,26,03,17,263,20*7C
$GPGSV,3,3,10,19,16,232,28,15,16,129,38*7C
$GPRMC,021109.000,A,3644.4369,S,17443.9962,E,2.77,45.79,290712,,,A*46
$GPGGA,021110.000,3644.4364,S,17443.9970,E,1,9,0.99,97.9,M,26.7,M,,*7D
$GPGSA,A,3,14,22,15,21,18,09,06,27,19,,,,1.31,0.99,0.86*06
$GPGSV,3,1,10,18,61,123,43,22,56,226,40,14,49,303,42,21,43,027,45*7C
$GPGSV,3,2,10,09,39,114,41,27,33,123,38,06,22,281,26,03,17,263,20*7C
$GPGSV,3,3,10,19,16,232,28,15,16,129,38*7C
$GPRMC,021110.000,A,3644.4364,S,17443.9970,E,2.79,47.99,290712,,,A*42
$GPGGA,021111.000,3644.4359,S,17443.9978,E,1,10,0.97,97.8,M,26.7,M,,*4D
$GPGSA,A,3,14,22,15,21,18,09,06,27,03,19,,,1.29,0.97,0.85*01
$GPGSV,3,1,10,18,61,123,42,22,56,226,39,14,49,303,41,21,43,027,44*71
$GPGSV,3,2,10,09,39,114,42,27,33,123,39,06,22,281,25,03,17,263,20*7D
$GPGSV,3,3,10,19,16,232,30,15,16,129,38*75
$GPRMC,021111.000,A,3644.4359,S,17443.9978,E,2.80,52.93,290712,,,A*4D
$GPGGA,021112.000,3644.4355,S,17443.9987,E,1,10,0.97,97.8,M,26.7,M,,*42
$GPGSA,A,3,14,22,15,21,18,09,06,27,03,19,,,1.29,0.97,0.85*01
$GPGSV,3,1,10,18,61,123,43,22,56,226,39,14,49,303,41,21,43,027,44*70
$GPGSV,3,2,10,09,39,114,42,27,33,123,39,06,22,281,25,03,17,263,21*7C
$GPGSV,3,3,10,19,16,232,32,15,16,129,39*76
$GPRMC,021112.000,A,3644.4355,S,17443.9987,E,2.82,56.31,290712,,,A*4C
$GPGGA,021113.000,3644.4351,S,17443.9995,E,1,10,0.97,97.8,M,26.7,M,,*44
$GPGSA,A,3,14,22,15,21,18,09,06,27,03,19,,,1.29,0.97,0.85*01
$GPGSV,3,1,10,18,61,123,43,22,56,226,39,14,49,303,41,21,43,027,43*77
$GPGSV,3,2,10,09,39,114,41,27,33,123,38,06,22,281,24,03,17,263,21*7F
$GPGSV,3,3,10,19,16,232,34,15,16,129,40*7E
$GPRMC,021113.000,A,3644.4351,S,17443.9995,E,2.82,55.25,290712,,,A*4C
$GPGGA,021114.000,3644.4347,S,17444.0003,E,1,10,0.97,97.8,M,26.7,M,,*4C
$GPGSA,A,3,14,22,15,21,18,09,06,27,03,19,,,1.29,0.97,0.85*01
$GPGSV,3,1,10,18,61,123,44,22,56,226,39,14,49,303,40,21,43,027,42*70
$GPGSV,3,2,10,09,39,114,42,27,33,123,38,06,22,281,23,03,17,263,21*7B
$GPGSV,3,3,10,19,16,232,35,15,16,129,41*7E
$GPRMC,021114.000,A,3644.4347,S,17444.0003,E,2.78,54.44,290712,,,A*47
$GPGGA,021115.000,3644.4343,S,17444.0010,E,1,8,1.05,97.7,M,26.7,M,,*77
$GPGSA,A,3,14,22,15,21,18,09,27,19,,,,,1.37,1.05,0.88*0C
$GPGSV,3,1,10,18,61,123,44,22,56,226,40,14,49,303,40,21,43,027,42*7E
$GPGSV,3,2,10,09,39,114,42,27,33,123,38,06,22,281,22,03,17,263,21*7A
$GPGSV,3,3,10,19,16,232,36,15,16,129,42*7E
$GPRMC,021115.000,A,3644.4343,S,17444.0010,E,2.76,63.92,290712,,,A*41
$GPGGA,021116.000,3644.4340,S,17444.0019,E,1,8,1.05,98.1,M,26.7,M,,*77
$GPGSA,A,3,14,22,15,21,18,09,27,19,,,,,1.37,1.05,0.88*0C
$GPGSV,3,1,10,18,61,123,44,22,56,226,40,14,49,303,40,21,43,027,42*7E
$GPGSV,3,2,10,09,39,114,42,27,33,123,39,06,22,281,22,03,17,263,20*7A
$GPGSV,3,3,10,19,16,232,37,15,16,129,43*7E
$GPRMC,021116.000,A,3644.4340,S,17444.0019,E,2.53,63.34,290712,,,A*43
$GPGGA,021117.000,3644.4336,S,17444.0026,E,1,9,0.99,98.0,M,26.7,M,,*7F
$GPGSA,A,3,14,22,15,21,18,09,06,27,19,,,,1.31,0.99,0.86*06
$GPGSV,3,1,10,18,61,123,44,22,56,226,40,14,49,303,40,21,43,027,42*7E
$GPGSV,3,2,10,09,39,114,41,27,33,123,39,06,22,281,23,03,17,263,19*72
$GPGSV,3,3,10,19,16,232,37,15,16,129,43*7E
$GPRMC,021117.000,A,3644.4336,S,17444.0026,E,2.70,63.24,290712,,,A*4F
$GPGGA,021118.000,3644.4333,S,17444.0036,E,1,9,1.00,98.0,M,26.7,M,,*75
$GPGSA,A,3,14,22,15,21,18,09,27,03,19,,,,1.32,1.00,0.86*01
$GPGSV,3,1,10,18,61,123,44,22,56,226,41,14,49,303,40,21,43,027,43*7E
$GPGSV,3,2,10,09,39,114,40,27,33,123,38,06,22,281,22,03,17,263,26*7F
$GPGSV,3,3,10,19,16,232,37,15,16,129,44*79
$GPRMC,021118.000,A,3644.4333,S,17444.0036,E,2.74,64.70,290712,,,A*46
$GPGGA,021119.000,3644.4330,S,17444.0047,E,1,9,1.00,98.1,M,26.7,M,,*70
$GPGSA,A,3,14,22,15,21,18,09,27,03,19,,,,1.32,1.00,0.86*01
$GPGSV,3,1,10,18,61,123,44,22,56,226,41,14,49,303,39,21,43,027,43*70
$GPGSV,3,2,10,09,39,114,40,27,33,123,38,06,22,281,15,03,17,264,28*72
$GPGSV,3,3,10,19,16,232,37,15,16,129,43*7E
$GPRMC,021119.000,A,3644.4330,S,17444.0047,E,3.07,69.27,290712,,,A*48
$GPGGA,021120.000,3644.4327,S,17444.0058,E,1,9,1.00,98.1,M,26.7,M,,*72
$GPGSA,A,3,14,22,15,21,18,09,27,03,19,,,,1.32,1.00,0.86*01
$GPGSV,3,1,10,18,61,123,43,22,56,226,41,14,49,303,39,21,43,027,43*77
$GPGSV,3,2,10,09,39,114,40,27,33,123,38,06,22,281,15,03,17,264,28*72
$GPGSV,3,3,10,19,16,232,37,15,16,129,44*79
$GPRMC,021120.000,A,3644.4327,S,17444.0058,E,3.03,73.20,290712,,,A*42
$GPGGA,021121.000,3644.4325,S,17444.0069,E,1,9,1.00,98.1,M,26.7,M,,*73
$GPGSA,A,3,14,22,15,21,18,09,27,03,19,,,,1.32,1.00,0.86*01
$GPGSV,3,1,10,18,61,123,43,22,56,226,41,14,49,303,39,21,43,027,43*77
$GPGSV,3,2,10,09,39,114,41,27,33,123,39,06,22,281,16,03,17,264,27*7E
$GPGSV,3,3,10,19,16,232,37,15,16,129,43*7E
$GPRMC,021121.000,A,3644.4325,S,17444.0069,E,3.03,69.81,290712,,,A*43
$GPGGA,021122.000,3644.4322,S,17444.0080,E,1,10,0.97,98.0,M,26.7,M,,*46
$GPGSA,A,3,14,22,15,21,18,09,06,27,03,19,,,1.29,0.97,0.85*01
$GPGSV,3,1,10,18,61,123,42,22,56,226,42,14,49,303,39,21,43,027,43*75
$GPGSV,3,2,10,09,39,114,41,27,33,123,40,06,22,281,17,03,17,264,27*71
$GPGSV,3,3,10,19,16,232,37,15,16,129,43*7E
$GPRMC,021122.000,A,3644.4322,S,17444.0080,E,3.04,71.83,290712,,,A*4C
$GPGGA,021123.000,3644.4320,S,17444.0090,E,1,9,1.00,98.0,M,26.7,M,,*73
$GPGSA,A,3,14,22,15,21,18,09,27,03,19,,,,1.32,1.00,0.86*01
$GPGSV,3,1,10,18,61,123,41,22,56,226,42,14,49,303,38,21,43,027,43*77
$GPGSV,3,2,10,09,39,114,42,27,33,123,41,06,22,281,18,03,17,264,36*7C
$GPGSV,3,3,10,19,16,232,36,15,16,129,43*7F
$GPRMC,021123.000,A,3644.4320,S,17444.0090,E,3.00,81.21,290712,,,A*4D
$GPGGA,021124.000,3644.4319,S,17444.0100,E,1,10,0.97,98.0,M,26.7,M,,*41
$GPGSA,A,3,14,22,15,21,18,09,06,27,03,19,,,1.29,0.97,0.85*01
$GPGSV,3,1,10,18,61,123,41,22,56,226,43,14,49,303,38,21,43,027,43*76
$GPGSV,3,2,10,09,39,114,43,27,33,123,42,06,22,281,25,03,17,264,36*70
$GPGSV,3,3,10,19,16,232,35,15,16,129,43*7C
$GPRMC,021124.000,A,3644.4319,S,17444.0100,E,3.02,80.91,290712,,,A*40
$GPGGA,021125.000,3644.4318,S,17444.0111,E,1,9,1.00,98.0,M,26.7,M,,*76
$GPGSA,A,3,14,22,15,21,18,09,27,03,19,,,,1.32,1.00,0.86*01
$GPGSV,3,1,10,18,61,123,41,22,56,226,43,14,49,303,38,21,43,027,44*71
$GPGSV,3,2,10,09,39,114,43,27,33,123,42,06,22,281,18,03,17,264,36*7E
$GPGSV,3,3,10,19,16,232,34,15,16,129,43*7D
$GPRMC,021125.000,A,3644.4318,S,17444.0111,E,3.04,78.68,290712,,,A*47
$GPGGA,021126.000,3644.4316,S,17444.0121,E,1,9,1.00,97.4,M,26.7,M,,*73
$GPGSA,A,3,14,22,15,21,18,09,27,03,19,,,,1.32,1.00,0.86*01
$GPGSV,3,1,10,18,61,123,42,22,56,226,43,14,49,303,38,21,43,027,44*72
$GPGSV,3,2,10,09,39,114,42,27,33,123,42,06,22,281,18,03,17,264,36*7F
$GPGSV,3,3,10,19,16,232,33,15,16,129,43*7A
$GPRMC,021126.000,A,3644.4316,S,17444.0121,E,3.07,76.45,290712,,,A*4B
$GPGGA,021127.000,3644.4315,S,17444.0131,E,1,9,1.00,96.9,M,26.7,M,,*7C
$GPGSA,A,3,14,22,15,21,18,09,27,03,19,,,,1.32,1.00,0.86*01
$GPGSV,3,1,10,18,61,123,42,22,56,226,43,14,49,303,38,21,43,027,44*72
$GPGSV,3,2,10,09,39,114,43,27,33,123,43,06,22,281,18,03,17,264,36*7F
$GPGSV,3,3,10,19,16,232,26,15,16,129,44*79
$GPRMC,021127.000,A,3644.4315,S,17444.0131,E,3.66,82.98,290712,,,A*44
$GPGGA,021128.000,3644.4313,S,17444.0140,E,1,10,0.97,96.4,M,26.7,M,,*49
$GPGSA,A,3,14,22,15,21,18,09,06,27,03,19,,,1.29,0.97,0.85*01
$GPGSV,3,1,10,18,61,123,42,22,56,226,43,14,49,303,38,21,43,027,44*72
$GPGSV,3,2,10,09,39,114,44,27,33,123,43,06,22,281,19,03,17,264,36*79
$GPGSV,3,3,10,19,16,232,25,15,16,129,44*7A
$GPRMC,021128.000,A,3644.4313,S,17444.0140,E,2.24,56.53,290712,,,A*42
$GPGGA,021129.000,3644.4310,S,17444.0147,E,1,9,1.00,95.9,M,26.7,M,,*75
$GPGSA,A,3,14,22,15,21,18,09,27,03,19,,,,1.32,1.00,0.86*01
$GPGSV,3,1,10,18,61,123,42,22,56,226,42,14,49,303,39,21,43,027,44*72
$GPGSV,3,2,10,09,39,114,45,27,33,123,43,06,22,281,18,03,17,264,35*7A
$GPGSV,3,3,10,19,16,232,25,15,16,129,44*7A
$GPRMC,021129.000,A,3644.4310,S,17444.0147,E,3.04,89.16,290712,,,A*47
$GPGGA,021130.000,3644.4311,S,17444.0159,E,1,9,1.00,96.0,M,26.7,M,,*79
$GPGSA,A,3,14,22,15,21,18,09,27,03,19,,,,1.32,1.00,0.86*01
$GPGSV,3,1,10,18,61,123,42,22,56,226,42,14,50,302,39,21,43,027,44*7B
$GPGSV,3,2,10,09,39,114,45,27,33,123,43,06,22,281,18,03,17,264,35*7A
$GPGSV,3,3,10,19,16,232,25,15,16,129,44*7A
$GPRMC,021130.000,A,3644.4311,S,17444.0159,E,3.08,91.65,290712,,,A*40
$GPGGA,021131.000,3644.4311,S,17444.0171,E,1,10,0.97,96.0,M,26.7,M,,*45
$GPGSA,A,3,14,22,15,21,18,09,06,27,03,19,,,1.29,0.97,0.85*01
$GPGSV,3,1,10,18,61,123,43,22,56,226,43,14,50,302,38,21,43,027,44*7A
$GPGSV,3,2,10,09,39,114,45,27,33,123,44,06,22,281,35,03,17,264,35*72
$GPGSV,3,3,10,19,16,232,26,15,16,129,44*79
$GPRMC,021131.000,A,3644.4311,S,17444.0171,E,3.33,93.17,290712,,,A*44
$GPGGA,021132.000,3644.4313,S,17444.0183,E,1,10,0.97,96.5,M,26.7,M,,*4C
$GPGSA,A,3,14,22,15,21,18,09,06,27,03,19,,,1.29,0.97,0.85*01
$GPGSV,3,1,10,18,61,123,43,22,56,226,43,14,50,302,38,21,43,027,44*7A
$GPGSV,3,2,10,09,39,114,45,27,33,123,44,06,22,281,35,03,17,264,35*72
$GPGSV,3,3,10,19,16,232,26,15,16,129,45*78
$GPRMC,021132.000,A,3644.4313,S,17444.0183,E,3.31,102.49,290712,,,A*78
$GPGGA,021133.000,3644.4316,S,17444.0194,E,1,10,0.97,96.5,M,26.7,M,,*4E
$GPGSA,A,3,14,22,15,21,18,09,06,27,03,19,,,1.29,0.97,0.85*01
$GPGSV,3,1,10,18,61,123,43,22,56,226,43,14,50,302,38,21,43,027,44*7A
$GPGSV,3,2,10,09,39,114,46,27,33,123,45,06,22,281,33,03,17,264,36*75
$GPGSV,3,3,10,19,16,232,26,15,16,129,45*78
$GPRMC,021133.000,A,3644.4316,S,17444.0194,E,2.94,101.90,290712,,,A*73
$GPGGA,021134.000,3644.4317,S,17444.0203,E,1,10,0.97,96.5,M,26.7,M,,*45
$GPGSA,A,3,14,22,15,21,18,09,06,27,03,19,,,1.29,0.97,0.85*01
$GPGSV,3,1,10,18,61,123,44,22,56,226,43,14,50,302,38,21,43,027,44*7D
$GPGSV,3,2,10,09,39,114,45,27,33,123,45,06,22,281,35,03,17,264,35*73
$GPGSV,3,3,10,19,16,232,26,15,16,129,46*7B
